exports_48/stk_exports/OUTPUT_CHAIN/HGV_00009/chain_aer.csv

# Satellite Name: Multiple
# Target Name: HGV_00009
# Start Time (UTCG): 21 Jul 2025 23:59:30.000
# Stop Time  (UTCG): 22 Jul 2025 00:26:16.000
# Orbit Altitude (km): 1300.000
# Inclination (deg): 60.000
# Orbit Geometry: delta
# Step Size (s): 60
# Number of Records: 1676
# ---------------------------------------------
Strand Name,Time (UTCG),Azimuth (deg),Elevation (deg),Range (km)
Satellite/OBS_001 to Missile/HGV_00009,22 Jul 2025 00:11:23.391796447,1.7088193346346934,-34.02190034577828,5009.934023797963
Satellite/OBS_001 to Missile/HGV_00009,22 Jul 2025 00:12:23.000000000,0.0873473474692661,-33.829126166061926,4735.542025683497
Satellite/OBS_001 to Missile/HGV_00009,22 Jul 2025 00:13:23.000000000,358.58139670583716,-33.64823790445149,4448.094114012247
Satellite/OBS_001 to Missile/HGV_00009,22 Jul 2025 00:14:23.000000000,357.15843332555687,-33.638749868161916,4149.881476849148
Satellite/OBS_001 to Missile/HGV_00009,22 Jul 2025 00:15:23.000000000,355.74579081655037,-33.91557271880333,3844.2497872257522
Satellite/OBS_001 to Missile/HGV_00009,22 Jul 2025 00:16:23.000000000,354.3883195869875,-34.45186620800442,3528.319353993617
Satellite/OBS_001 to Missile/HGV_00009,22 Jul 2025 00:17:23.000000000,353.0170306148914,-35.44529124683409,3205.56167874916
Satellite/OBS_001 to Missile/HGV_00009,22 Jul 2025 00:17:25.989361000,352.94640910357185,-35.50974447087836,3189.3957473105584
Satellite/OBS_002 to Missile/HGV_00009,21 Jul 2025 23:59:59.990612000,79.78417507794164,-35.381013112151926,2814.679282204476
Satellite/OBS_002 to Missile/HGV_00009,22 Jul 2025 00:00:59.000000000,83.80626342464645,-37.104458073729674,2578.6516751151685
Satellite/OBS_002 to Missile/HGV_00009,22 Jul 2025 00:01:59.000000000,89.11955821818981,-39.77536256045849,2365.1518741243353
Satellite/OBS_002 to Missile/HGV_00009,22 Jul 2025 00:02:59.000000000,96.17916717340242,-42.58817842213384,2181.0427888073227
Satellite/OBS_002 to Missile/HGV_00009,22 Jul 2025 00:03:59.000000000,105.61703842026334,-44.11862670166158,2031.0738164946974
Satellite/OBS_002 to Missile/HGV_00009,22 Jul 2025 00:04:59.000000000,117.0349999520217,-45.669426702794595,1939.5516336334404
Satellite/OBS_002 to Missile/HGV_00009,22 Jul 2025 00:05:59.000000000,129.82340142982244,-46.88647849961444,1914.8591509626674
Satellite/OBS_002 to Missile/HGV_00009,22 Jul 2025 00:06:59.000000000,142.68841584706337,-46.59676257631636,1948.8219243212266
Satellite/OBS_002 to Missile/HGV_00009,22 Jul 2025 00:07:59.000000000,153.9230772533023,-44.48692784048106,2039.7067880437462
Satellite/OBS_002 to Missile/HGV_00009,22 Jul 2025 00:08:59.000000000,163.12081711621818,-42.45456811615847,2188.2339840271484
Satellite/OBS_002 to Missile/HGV_00009,22 Jul 2025 00:09:59.000000000,170.19635821541965,-40.42145417747074,2379.298850397
Satellite/OBS_002 to Missile/HGV_00009,22 Jul 2025 00:10:59.000000000,175.102321279133,-38.157017982298065,2606.9166657955207
Satellite/OBS_002 to Missile/HGV_00009,22 Jul 2025 00:11:59.000000000,178.71248190477044,-36.6002285695452,2862.230316010245
Satellite/OBS_002 to Missile/HGV_00009,22 Jul 2025 00:12:59.000000000,181.2407862126021,-35.41129872090485,3137.845039232468
Satellite/OBS_002 to Missile/HGV_00009,22 Jul 2025 00:13:59.000000000,182.85750044147377,-34.48196018579872,3432.525044585927
Satellite/OBS_002 to Missile/HGV_00009,22 Jul 2025 00:14:59.000000000,183.92874562159432,-34.00263019438753,3740.5318514624005
Satellite/OBS_002 to Missile/HGV_00009,22 Jul 2025 00:15:59.000000000,184.5451516640458,-33.78585944791742,4060.374604678012
Satellite/OBS_002 to Missile/HGV_00009,22 Jul 2025 00:16:59.000000000,184.80783601638743,-33.80929416161722,4391.299444717109
Satellite/OBS_002 to Missile/HGV_00009,22 Jul 2025 00:17:25.984846000,184.85060150907094,-33.90413084586599,4542.702235947203
Satellite/OBS_010 to Missile/HGV_00009,21 Jul 2025 23:59:59.984854000,352.7990618552578,-32.75103473553411,4540.869041902491
Satellite/OBS_010 to Missile/HGV_00009,22 Jul 2025 00:00:59.000000000,350.8493467286128,-32.81799301116503,4439.83176180158
Satellite/OBS_010 to Missile/HGV_00009,22 Jul 2025 00:01:59.000000000,348.8059778391798,-33.186151210076126,4343.935972159994
Satellite/OBS_010 to Missile/HGV_00009,22 Jul 2025 00:02:59.000000000,346.7330587264699,-33.44645904306032,4250.362319076048
Satellite/OBS_010 to Missile/HGV_00009,22 Jul 2025 00:03:59.000000000,344.6898005143482,-33.10927508565878,4138.963816759713
Satellite/OBS_010 to Missile/HGV_00009,22 Jul 2025 00:04:59.000000000,342.58388427464394,-33.087014070184296,4030.4625837906233
Satellite/OBS_010 to Missile/HGV_00009,22 Jul 2025 00:05:59.000000000,340.4092970735613,-33.42616847235277,3929.0066171955714
Satellite/OBS_010 to Missile/HGV_00009,22 Jul 2025 00:06:59.000000000,338.1784613476093,-33.68246867932402,3825.1334357279147
Satellite/OBS_010 to Missile/HGV_00009,22 Jul 2025 00:07:59.000000000,335.8716505192607,-33.63929860874745,3703.0908727462283
Satellite/OBS_010 to Missile/HGV_00009,22 Jul 2025 00:08:59.000000000,333.44687399570597,-33.9513777041833,3585.057502844774
Satellite/OBS_010 to Missile/HGV_00009,22 Jul 2025 00:09:59.000000000,330.86933337522606,-34.37262931522351,3462.3658064059705
Satellite/OBS_010 to Missile/HGV_00009,22 Jul 2025 00:10:59.000000000,328.0149988792827,-34.629101193244125,3314.090382132325
Satellite/OBS_010 to Missile/HGV_00009,22 Jul 2025 00:11:59.000000000,324.8349396222135,-35.2215943618524,3164.9654770807742
Satellite/OBS_010 to Missile/HGV_00009,22 Jul 2025 00:12:59.000000000,321.18037971721714,-35.95559751346912,3008.312701203503
Satellite/OBS_010 to Missile/HGV_00009,22 Jul 2025 00:13:59.000000000,316.81313080953174,-36.798907162095105,2840.4471161130186
Satellite/OBS_010 to Missile/HGV_00009,22 Jul 2025 00:14:59.000000000,311.57110442581705,-37.972763719465604,2677.8931493196237
Satellite/OBS_010 to Missile/HGV_00009,22 Jul 2025 00:15:59.000000000,305.138668720162,-39.32313852787445,2523.1337975217007
Satellite/OBS_010 to Missile/HGV_00009,22 Jul 2025 00:16:59.000000000,297.182719993646,-40.77903117262333,2386.1101559446415
Satellite/OBS_010 to Missile/HGV_00009,22 Jul 2025 00:17:25.992211000,293.06591241153336,-41.43365945455638,2334.926384904756
Satellite/OBS_011 to Missile/HGV_00009,21 Jul 2025 23:59:59.989283000,190.32521013589286,-33.772063821040845,3213.03114675245
Satellite/OBS_011 to Missile/HGV_00009,22 Jul 2025 00:00:59.000000000,192.29005486343866,-33.598813113018736,3346.7376989697796
Satellite/OBS_011 to Missile/HGV_00009,22 Jul 2025 00:01:59.000000000,194.1120784482353,-33.82345504141281,3484.2310597208925
Satellite/OBS_011 to Missile/HGV_00009,22 Jul 2025 00:02:59.000000000,195.70355914264388,-33.90472919601105,3623.050351964103
Satellite/OBS_011 to Missile/HGV_00009,22 Jul 2025 00:03:59.000000000,196.86536386792147,-33.312479432565034,3775.6635476183424
Satellite/OBS_011 to Missile/HGV_00009,22 Jul 2025 00:04:59.000000000,197.8805789751832,-33.13443648031875,3931.176908903004
Satellite/OBS_011 to Missile/HGV_00009,22 Jul 2025 00:05:59.000000000,198.79621953988308,-33.350168551902776,4085.1250445745654
Satellite/OBS_011 to Missile/HGV_00009,22 Jul 2025 00:06:59.000000000,199.5342602430081,-33.484723116079394,4242.641812204998
Satellite/OBS_011 to Missile/HGV_00009,22 Jul 2025 00:07:59.000000000,199.9811809655727,-33.35909525440761,4415.6220862242235
Satellite/OBS_011 to Missile/HGV_00009,22 Jul 2025 00:08:59.000000000,200.34378624332786,-33.55623884360248,4588.648796306715
Satellite/OBS_011 to Missile/HGV_00009,22 Jul 2025 00:09:59.000000000,200.56306281890363,-33.83057914518335,4768.08359312603
Satellite/OBS_011 to Missile/HGV_00009,22 Jul 2025 00:10:59.000000000,200.50710057599116,-33.965481969404344,4971.565361376586
Satellite/OBS_011 to Missile/HGV_00009,22 Jul 2025 00:11:17.065453708,200.47016124972228,-34.04804115693179,5034.3582270129455
Satellite/OBS_013 to Missile/HGV_00009,21 Jul 2025 23:59:59.982466000,293.80145358358965,-33.65602803923572,5256.836034082539
Satellite/OBS_013 to Missile/HGV_00009,22 Jul 2025 00:00:59.000000000,293.5124648796727,-33.78680951202057,5266.0387682985265
Satellite/OBS_013 to Missile/HGV_00009,22 Jul 2025 00:01:25.003932548,293.4167174782914,-33.90951313091844,5266.857848342061
Satellite/OBS_013 to Missile/HGV_00009,22 Jul 2025 00:07:31.535401048,291.2566370769873,-33.984118232477066,5057.591191997102
Satellite/OBS_013 to Missile/HGV_00009,22 Jul 2025 00:08:31.000000000,290.49821248535096,-33.87032055326944,4985.713936969674
Satellite/OBS_013 to Missile/HGV_00009,22 Jul 2025 00:09:31.000000000,289.6461780187625,-33.95397040052358,4904.825924078505
Satellite/OBS_013 to Missile/HGV_00009,22 Jul 2025 00:10:31.000000000,288.36796803312336,-33.825308404388394,4816.709812790982
Satellite/OBS_013 to Missile/HGV_00009,22 Jul 2025 00:11:31.000000000,286.71003751617906,-33.72193514989266,4724.305143970932
Satellite/OBS_013 to Missile/HGV_00009,22 Jul 2025 00:12:31.000000000,284.7665442057877,-33.755749137113995,4631.418749854516
Satellite/OBS_013 to Missile/HGV_00009,22 Jul 2025 00:13:31.000000000,282.3083232512701,-33.690107032660826,4543.202906555841
Satellite/OBS_013 to Missile/HGV_00009,22 Jul 2025 00:14:31.000000000,279.4019240400279,-33.68294169685238,4464.426620756566
Satellite/OBS_013 to Missile/HGV_00009,22 Jul 2025 00:15:31.000000000,276.08842590553206,-33.739321085074955,4400.207727347689
Satellite/OBS_013 to Missile/HGV_00009,22 Jul 2025 00:16:31.000000000,272.3231449741604,-33.77131078459212,4357.381893117359
Satellite/OBS_013 to Missile/HGV_00009,22 Jul 2025 00:17:25.985520000,268.57025228919736,-33.83773827891592,4340.877956850925
Satellite/OBS_031 to Missile/HGV_00009,21 Jul 2025 23:59:59.983882000,231.44680033504733,-33.036228358040724,4831.994368730653
Satellite/OBS_031 to Missile/HGV_00009,22 Jul 2025 00:00:59.000000000,227.66598849127962,-33.87458269288307,5316.889637007961
Satellite/OBS_031 to Missile/HGV_00009,22 Jul 2025 00:01:00.046712175,227.6071948265033,-33.89394367067191,5325.621976056697
Satellite/OBS_036 to Missile/HGV_00009,21 Jul 2025 23:59:59.982192000,314.4337304035515,-33.799368859293345,5338.650106344757
Satellite/OBS_036 to Missile/HGV_00009,22 Jul 2025 00:00:59.000000000,308.5089633364949,-33.36611838825367,4993.2683460077205
Satellite/OBS_036 to Missile/HGV_00009,22 Jul 2025 00:01:59.000000000,301.5333466993868,-33.40326677241484,4701.311790442968
Satellite/OBS_036 to Missile/HGV_00009,22 Jul 2025 00:02:59.000000000,293.7363144557617,-33.51159709706392,4488.1875915503315
Satellite/OBS_036 to Missile/HGV_00009,22 Jul 2025 00:03:59.000000000,285.63493474702807,-33.13522596080663,4362.771755510213
Satellite/OBS_036 to Missile/HGV_00009,22 Jul 2025 00:04:59.000000000,277.2342680409171,-33.07840920166798,4324.265591943848
Satellite/OBS_036 to Missile/HGV_00009,22 Jul 2025 00:05:59.000000000,268.8859820586754,-33.35563125010072,4375.463531061734
Satellite/OBS_036 to Missile/HGV_00009,22 Jul 2025 00:06:59.000000000,261.09492572204033,-33.55833376172534,4508.537878217088
Satellite/OBS_036 to Missile/HGV_00009,22 Jul 2025 00:07:59.000000000,254.26614932799052,-33.544440802638306,4704.199819585489
Satellite/OBS_036 to Missile/HGV_00009,22 Jul 2025 00:08:59.000000000,248.24611801054223,-33.907220768210514,4955.739321433906
Satellite/OBS_036 to Missile/HGV_00009,22 Jul 2025 00:09:08.940842354,247.32915306670114,-33.99980477915551,5001.887353410786
Satellite/OBS_038 to Missile/HGV_00009,22 Jul 2025 00:07:28.690469929,345.46182244542314,-34.02368054821925,5081.322977784549
Satellite/OBS_038 to Missile/HGV_00009,22 Jul 2025 00:08:28.000000000,341.7516856959306,-33.51402333202085,4647.378594783431
Satellite/OBS_038 to Missile/HGV_00009,22 Jul 2025 00:09:28.000000000,337.23293571698343,-33.54594704875249,4230.107641763017
Satellite/OBS_038 to Missile/HGV_00009,22 Jul 2025 00:10:28.000000000,332.1001277072629,-33.69830806109874,3850.345736375122
Satellite/OBS_038 to Missile/HGV_00009,22 Jul 2025 00:11:28.000000000,326.17438489271865,-34.16779391440697,3510.367034168268
Satellite/OBS_038 to Missile/HGV_00009,22 Jul 2025 00:12:28.000000000,319.10904869787026,-35.11256130849076,3216.9932515958544
Satellite/OBS_038 to Missile/HGV_00009,22 Jul 2025 00:13:28.000000000,311.09039460288693,-36.09200211279784,2974.5134859282753
Satellite/OBS_038 to Missile/HGV_00009,22 Jul 2025 00:14:28.000000000,302.0405395972362,-37.152706536111104,2788.7082068739473
Satellite/OBS_038 to Missile/HGV_00009,22 Jul 2025 00:15:28.000000000,292.05972066409885,-38.13107426494043,2664.585636435578
Satellite/OBS_038 to Missile/HGV_00009,22 Jul 2025 00:16:28.000000000,281.6426127061913,-38.718255848503716,2598.358204541425
Satellite/OBS_038 to Missile/HGV_00009,22 Jul 2025 00:17:25.991362000,271.55962373548687,-38.92019878541228,2589.3583089747103
Satellite/OBS_039 to Missile/HGV_00009,21 Jul 2025 23:59:59.992464000,11.868264350593018,-39.80065381897317,2259.310767665996
Satellite/OBS_039 to Missile/HGV_00009,22 Jul 2025 00:00:59.000000000,7.592181755186349,-48.26202416018618,1781.3732082570777
Satellite/OBS_039 to Missile/HGV_00009,22 Jul 2025 00:01:59.000000000,355.5913081574232,-63.65393480889368,1430.8367996730603
Satellite/OBS_039 to Missile/HGV_00009,22 Jul 2025 00:02:59.000000000,290.83026475898197,-78.15633761098309,1304.8463918033774
Satellite/OBS_039 to Missile/HGV_00009,22 Jul 2025 00:03:59.000000000,225.7148340481307,-64.46802059065843,1413.4053874389829
Satellite/OBS_039 to Missile/HGV_00009,22 Jul 2025 00:04:59.000000000,213.40923668854185,-50.01654231254395,1751.7746120538502
Satellite/OBS_039 to Missile/HGV_00009,22 Jul 2025 00:05:59.000000000,209.1011168131503,-41.89894622475973,2213.2856523569626
Satellite/OBS_039 to Missile/HGV_00009,22 Jul 2025 00:06:59.000000000,206.95935381782994,-37.413182763920645,2711.306425350178
Satellite/OBS_039 to Missile/HGV_00009,22 Jul 2025 00:07:59.000000000,205.5825557585771,-34.75395639656951,3206.864615150996
Satellite/OBS_039 to Missile/HGV_00009,22 Jul 2025 00:08:59.000000000,204.74308355766442,-33.7524315974666,3713.793996322609
Satellite/OBS_039 to Missile/HGV_00009,22 Jul 2025 00:09:59.000000000,204.16816121314812,-33.575592810070525,4211.954041455259
Satellite/OBS_039 to Missile/HGV_00009,22 Jul 2025 00:10:59.000000000,203.61960187045875,-33.66715030734559,4681.995037696283
Satellite/OBS_039 to Missile/HGV_00009,22 Jul 2025 00:11:38.009771465,203.33653510822705,-34.00546925004432,4980.178700909705
Satellite/OBS_047 to Missile/HGV_00009,22 Jul 2025 00:01:21.021243082,30.851547293062243,-33.96419413797067,5311.426647061891
Satellite/OBS_047 to Missile/HGV_00009,22 Jul 2025 00:02:21.000000000,29.519972683740612,-33.749481314187136,4856.850322902682
Satellite/OBS_047 to Missile/HGV_00009,22 Jul 2025 00:03:21.000000000,28.29494401731852,-33.33744094556674,4411.026515504361
Satellite/OBS_047 to Missile/HGV_00009,22 Jul 2025 00:04:21.000000000,27.167589154926407,-33.104826118339595,3968.9009385538407
Satellite/OBS_047 to Missile/HGV_00009,22 Jul 2025 00:05:21.000000000,25.89411282167342,-33.69011806688449,3527.2056043024113
Satellite/OBS_047 to Missile/HGV_00009,22 Jul 2025 00:06:21.000000000,24.339589779476558,-35.37850242033441,3094.543311490667
Satellite/OBS_047 to Missile/HGV_00009,22 Jul 2025 00:07:21.000000000,22.762385269451702,-37.52016170474781,2675.4453650210417
Satellite/OBS_047 to Missile/HGV_00009,22 Jul 2025 00:08:21.000000000,20.970939314529762,-41.07174002247038,2278.37451816381
Satellite/OBS_047 to Missile/HGV_00009,22 Jul 2025 00:09:21.000000000,18.287943551738262,-47.25058185169943,1922.0622286383482
Satellite/OBS_047 to Missile/HGV_00009,22 Jul 2025 00:10:21.000000000,14.59636070500994,-56.09005596039199,1617.0650577881001
Satellite/OBS_047 to Missile/HGV_00009,22 Jul 2025 00:11:21.000000000,7.881132755438719,-68.45834018591096,1391.8234294949311
Satellite/OBS_047 to Missile/HGV_00009,22 Jul 2025 00:12:21.000000000,331.11886269103366,-82.99473279690618,1294.6432907943743
Satellite/OBS_047 to Missile/HGV_00009,22 Jul 2025 00:13:21.000000000,221.07308708220484,-76.86059787204444,1325.3789734505915
Satellite/OBS_047 to Missile/HGV_00009,22 Jul 2025 00:14:21.000000000,206.77937466253272,-63.40501510157264,1474.9591243787092
Satellite/OBS_047 to Missile/HGV_00009,22 Jul 2025 00:15:21.000000000,201.85131553525298,-53.377167862048026,1710.8463623218292
Satellite/OBS_047 to Missile/HGV_00009,22 Jul 2025 00:16:21.000000000,198.7236966356539,-46.437201365858286,1992.4251279145385
Satellite/OBS_047 to Missile/HGV_00009,22 Jul 2025 00:17:21.000000000,196.33936126522661,-41.7992566396988,2303.092379895575
Satellite/OBS_047 to Missile/HGV_00009,22 Jul 2025 00:17:25.992228000,196.16422027228685,-41.49315869386076,2329.8616059695373
Satellite/OBS_048 to Missile/HGV_00009,21 Jul 2025 23:59:59.987710000,122.71565249531533,-32.835958409589175,3684.4060093780404
Satellite/OBS_048 to Missile/HGV_00009,22 Jul 2025 00:00:59.000000000,131.04136505931302,-32.95633821337474,3721.5114476315357
Satellite/OBS_048 to Missile/HGV_00009,22 Jul 2025 00:01:59.000000000,139.22324586869073,-33.32551271179562,3829.135634252253
Satellite/OBS_048 to Missile/HGV_00009,22 Jul 2025 00:02:59.000000000,146.7348480794541,-33.50576767449168,4000.8137448315624
Satellite/OBS_048 to Missile/HGV_00009,22 Jul 2025 00:03:59.000000000,153.11722181814514,-33.107564728660016,4231.699284458948
Satellite/OBS_048 to Missile/HGV_00009,22 Jul 2025 00:04:59.000000000,158.70643972460198,-33.1576086979683,4503.55284955955
Satellite/OBS_048 to Missile/HGV_00009,22 Jul 2025 00:05:59.000000000,163.60705222247844,-33.649394033873946,4803.9623517836835
Satellite/OBS_048 to Missile/HGV_00009,22 Jul 2025 00:06:28.972294281,165.81481443174013,-33.9880267399847,4962.035131416693
