exports_48/stk_exports/OUTPUT_CHAIN/HGV_00008/chain_aer.csv

# Satellite Name: Multiple
# Target Name: HGV_00008
# Start Time (UTCG): 21 Jul 2025 23:59:30.000
# Stop Time  (UTCG): 22 Jul 2025 00:26:16.000
# Orbit Altitude (km): 1300.000
# Inclination (deg): 60.000
# Orbit Geometry: delta
# Step Size (s): 60
# Number of Records: 1676
# ---------------------------------------------
Strand Name,Time (UTCG),Azimuth (deg),Elevation (deg),Range (km)
Satellite/OBS_001 to Missile/HGV_00008,22 Jul 2025 00:09:02.761806687,352.3074226592882,-34.02211826735038,4997.595163603391
Satellite/OBS_001 to Missile/HGV_00008,22 Jul 2025 00:10:02.000000000,348.2103993465832,-33.371226546138395,4563.502136593504
Satellite/OBS_001 to Missile/HGV_00008,22 Jul 2025 00:11:02.000000000,343.3129298234624,-33.233664816579434,4134.6815729566615
Satellite/OBS_001 to Missile/HGV_00008,22 Jul 2025 00:12:02.000000000,337.3062118782242,-33.776783608282635,3732.7827752743233
Satellite/OBS_001 to Missile/HGV_00008,22 Jul 2025 00:13:02.000000000,330.7673851408304,-34.581522069244926,3310.176322725845
Satellite/OBS_001 to Missile/HGV_00008,22 Jul 2025 00:14:02.000000000,323.0228350653239,-36.09511916000571,2901.0970119732606
Satellite/OBS_001 to Missile/HGV_00008,22 Jul 2025 00:15:02.000000000,312.70611796077026,-38.688201018553215,2553.3729291128284
Satellite/OBS_001 to Missile/HGV_00008,22 Jul 2025 00:16:02.000000000,300.48845593424363,-41.767501691253216,2248.9203003739713
Satellite/OBS_001 to Missile/HGV_00008,22 Jul 2025 00:17:02.000000000,285.1296942800791,-45.07971565310946,2030.961896790613
Satellite/OBS_001 to Missile/HGV_00008,22 Jul 2025 00:18:02.000000000,266.99958075823474,-47.47460994684893,1920.8505385047272
Satellite/OBS_001 to Missile/HGV_00008,22 Jul 2025 00:19:02.000000000,249.86443924457717,-47.82074532843407,1903.033871833275
Satellite/OBS_001 to Missile/HGV_00008,22 Jul 2025 00:20:02.000000000,235.68080412839626,-46.50893979267346,1973.5700050254004
Satellite/OBS_001 to Missile/HGV_00008,22 Jul 2025 00:21:02.000000000,225.77701419305174,-44.09814018343518,2119.482555582894
Satellite/OBS_001 to Missile/HGV_00008,22 Jul 2025 00:22:02.000000000,219.05961306312602,-41.165442539518,2345.518104144442
Satellite/OBS_001 to Missile/HGV_00008,22 Jul 2025 00:22:51.991374000,214.3856950831851,-38.94868950487581,2585.8026916509725
Satellite/OBS_002 to Missile/HGV_00008,21 Jul 2025 23:59:59.990670000,80.1732696369822,-34.96908236936492,2797.1852857452104
Satellite/OBS_002 to Missile/HGV_00008,22 Jul 2025 00:00:59.000000000,83.85510555022928,-37.27735401702291,2470.093149365801
Satellite/OBS_002 to Missile/HGV_00008,22 Jul 2025 00:01:59.000000000,89.38568592581271,-40.93407702616341,2165.7028020493008
Satellite/OBS_002 to Missile/HGV_00008,22 Jul 2025 00:02:59.000000000,97.83096073764459,-46.1081839813125,1908.0575553033907
Satellite/OBS_002 to Missile/HGV_00008,22 Jul 2025 00:03:59.000000000,111.50067465235405,-52.301000684848866,1720.8586933084173
Satellite/OBS_002 to Missile/HGV_00008,22 Jul 2025 00:04:59.000000000,137.23452227225724,-53.55653716358661,1654.369726574054
Satellite/OBS_002 to Missile/HGV_00008,22 Jul 2025 00:05:59.000000000,161.50240023500373,-49.3893717491821,1764.8863089992767
Satellite/OBS_002 to Missile/HGV_00008,22 Jul 2025 00:06:59.000000000,177.63252452477911,-44.018234454876506,2017.445117130538
Satellite/OBS_002 to Missile/HGV_00008,22 Jul 2025 00:07:59.000000000,187.7681740876568,-39.91521535541495,2362.155589626862
Satellite/OBS_002 to Missile/HGV_00008,22 Jul 2025 00:08:59.000000000,194.06778085552537,-37.04447461915567,2775.607502353258
Satellite/OBS_002 to Missile/HGV_00008,22 Jul 2025 00:09:59.000000000,196.52096180288777,-34.460461869207506,3274.4998467276737
Satellite/OBS_002 to Missile/HGV_00008,22 Jul 2025 00:10:59.000000000,198.0753746059339,-33.42219210272513,3794.0490882279178
Satellite/OBS_002 to Missile/HGV_00008,22 Jul 2025 00:11:59.000000000,199.24316140261115,-33.46744278314864,4319.194668132734
Satellite/OBS_002 to Missile/HGV_00008,22 Jul 2025 00:12:59.000000000,199.1833221567606,-33.80244821546211,4857.542818859351
Satellite/OBS_002 to Missile/HGV_00008,22 Jul 2025 00:13:27.708159301,198.83075553907244,-34.06372186294941,5113.767768616445
Satellite/OBS_010 to Missile/HGV_00008,21 Jul 2025 23:59:59.984879000,352.53727757913526,-32.44283883953935,4533.457398201253
Satellite/OBS_010 to Missile/HGV_00008,22 Jul 2025 00:00:59.000000000,349.48629298052026,-32.490993264115986,4496.312370204399
Satellite/OBS_010 to Missile/HGV_00008,22 Jul 2025 00:01:59.000000000,346.3880335466908,-32.69768812874389,4471.123923102877
Satellite/OBS_010 to Missile/HGV_00008,22 Jul 2025 00:02:59.000000000,343.3186698162099,-33.06477988333019,4460.351545749092
Satellite/OBS_010 to Missile/HGV_00008,22 Jul 2025 00:03:59.000000000,340.2220587132662,-33.538725729000994,4461.750542034131
Satellite/OBS_010 to Missile/HGV_00008,22 Jul 2025 00:04:59.000000000,335.78159110945904,-33.26038760833478,4392.573710229467
Satellite/OBS_010 to Missile/HGV_00008,22 Jul 2025 00:05:59.000000000,330.95851512026087,-32.99118892053657,4320.688363727948
Satellite/OBS_010 to Missile/HGV_00008,22 Jul 2025 00:06:59.000000000,326.088396854883,-32.97850664527363,4276.956032500248
Satellite/OBS_010 to Missile/HGV_00008,22 Jul 2025 00:07:59.000000000,321.24260386860624,-33.22429166064027,4263.768459825548
Satellite/OBS_010 to Missile/HGV_00008,22 Jul 2025 00:08:59.000000000,316.16610756204625,-33.51566952711398,4264.772034132026
Satellite/OBS_010 to Missile/HGV_00008,22 Jul 2025 00:09:59.000000000,309.96580480562216,-33.257730173771414,4216.145028253755
Satellite/OBS_010 to Missile/HGV_00008,22 Jul 2025 00:10:59.000000000,303.6374529549122,-33.221806500989366,4202.189720056845
Satellite/OBS_010 to Missile/HGV_00008,22 Jul 2025 00:11:59.000000000,297.3611936124627,-33.459812605036184,4232.447751711624
Satellite/OBS_010 to Missile/HGV_00008,22 Jul 2025 00:12:59.000000000,290.57129904830094,-33.440970685520796,4250.108862204137
Satellite/OBS_010 to Missile/HGV_00008,22 Jul 2025 00:13:59.000000000,283.50883070851654,-33.36178287611119,4272.30476215417
Satellite/OBS_010 to Missile/HGV_00008,22 Jul 2025 00:14:59.000000000,276.5698352967124,-33.534579518012706,4338.935746758639
Satellite/OBS_010 to Missile/HGV_00008,22 Jul 2025 00:15:59.000000000,269.6106515654632,-33.516250503508935,4391.32656507319
Satellite/OBS_010 to Missile/HGV_00008,22 Jul 2025 00:16:59.000000000,262.8690658737204,-33.53940817898927,4450.803812085893
Satellite/OBS_010 to Missile/HGV_00008,22 Jul 2025 00:17:59.000000000,256.50083690513554,-33.669543513568456,4524.798955987137
Satellite/OBS_010 to Missile/HGV_00008,22 Jul 2025 00:18:59.000000000,250.8826515951922,-33.69067599870693,4584.7322221247005
Satellite/OBS_010 to Missile/HGV_00008,22 Jul 2025 00:19:59.000000000,246.04668343923456,-33.790655796553,4654.449961550741
Satellite/OBS_010 to Missile/HGV_00008,22 Jul 2025 00:20:59.000000000,242.17298442977486,-33.93002305162484,4747.1277288947695
Satellite/OBS_010 to Missile/HGV_00008,22 Jul 2025 00:21:37.238973487,240.18786810024028,-34.035769129163036,4832.895086587136
Satellite/OBS_011 to Missile/HGV_00008,21 Jul 2025 23:59:59.989252000,190.63396451149586,-33.31452578687456,3222.3315679921043
Satellite/OBS_011 to Missile/HGV_00008,22 Jul 2025 00:00:59.000000000,194.4094714571826,-33.16665435773891,3322.0662498196866
Satellite/OBS_011 to Missile/HGV_00008,22 Jul 2025 00:01:59.000000000,197.97529125215553,-33.22957940928486,3430.2482596370223
Satellite/OBS_011 to Missile/HGV_00008,22 Jul 2025 00:02:59.000000000,201.30291399510185,-33.50003273899403,3541.786207876472
Satellite/OBS_011 to Missile/HGV_00008,22 Jul 2025 00:03:59.000000000,204.47207119014496,-33.895482978734016,3659.685037357027
Satellite/OBS_011 to Missile/HGV_00008,22 Jul 2025 00:04:59.000000000,207.5496952904981,-33.334043070706166,3899.1321795850245
Satellite/OBS_011 to Missile/HGV_00008,22 Jul 2025 00:05:59.000000000,210.15761171050113,-32.9703933631257,4174.029618986862
Satellite/OBS_011 to Missile/HGV_00008,22 Jul 2025 00:06:59.000000000,212.479362062291,-33.04046803812726,4446.682615273819
Satellite/OBS_011 to Missile/HGV_00008,22 Jul 2025 00:07:59.000000000,214.6099974930039,-33.46331663241008,4712.368292634091
Satellite/OBS_011 to Missile/HGV_00008,22 Jul 2025 00:08:59.000000000,216.50276810048845,-34.027960068985266,4995.075557766119
Satellite/OBS_011 to Missile/HGV_00008,22 Jul 2025 00:09:04.964246442,216.63558919970635,-34.057655705035394,5030.552252464071
Satellite/OBS_013 to Missile/HGV_00008,21 Jul 2025 23:59:59.982406000,293.6253958746533,-33.42368030833586,5274.660340779406
Satellite/OBS_013 to Missile/HGV_00008,22 Jul 2025 00:00:59.000000000,293.8620651224984,-33.66440211852014,5370.882667740512
Satellite/OBS_013 to Missile/HGV_00008,22 Jul 2025 00:01:43.690798056,294.1528688515771,-33.914481785587604,5435.391961564268
Satellite/OBS_026 to Missile/HGV_00008,22 Jul 2025 00:16:10.275429175,286.21597728735276,-34.04809219311526,5037.947607429177
Satellite/OBS_026 to Missile/HGV_00008,22 Jul 2025 00:17:10.000000000,284.46840678868705,-34.00731227828811,4976.9096872681985
Satellite/OBS_026 to Missile/HGV_00008,22 Jul 2025 00:17:39.080737298,283.4723401904226,-34.03722271306136,4960.258639952586
Satellite/OBS_031 to Missile/HGV_00008,21 Jul 2025 23:59:59.983902000,231.1963612721719,-32.74400822831341,4826.092204100056
Satellite/OBS_031 to Missile/HGV_00008,22 Jul 2025 00:00:59.000000000,226.56740547024233,-33.68559623141315,5382.2374653663865
Satellite/OBS_031 to Missile/HGV_00008,22 Jul 2025 00:01:08.998344131,225.90072143763365,-33.8935600366875,5478.794183019186
Satellite/OBS_035 to Missile/HGV_00008,22 Jul 2025 00:09:30.652872857,315.93707794121246,-34.06132529029204,5109.080663877843
Satellite/OBS_035 to Missile/HGV_00008,22 Jul 2025 00:10:30.000000000,313.9945791031061,-33.36679988660891,4618.385341280814
Satellite/OBS_035 to Missile/HGV_00008,22 Jul 2025 00:11:30.000000000,311.33510461409674,-33.3282655523757,4128.875751593416
Satellite/OBS_035 to Missile/HGV_00008,22 Jul 2025 00:12:30.000000000,308.14662832086015,-33.929460006219756,3668.459480993804
Satellite/OBS_035 to Missile/HGV_00008,22 Jul 2025 00:13:30.000000000,305.2992348733477,-34.563418463587915,3286.778468783485
Satellite/OBS_035 to Missile/HGV_00008,22 Jul 2025 00:14:30.000000000,301.68548013847425,-35.99770067022531,2939.286572012768
Satellite/OBS_035 to Missile/HGV_00008,22 Jul 2025 00:15:30.000000000,297.3382816673267,-37.962707007100484,2648.2356341518816
Satellite/OBS_035 to Missile/HGV_00008,22 Jul 2025 00:16:30.000000000,292.33202250337933,-39.50590420506114,2448.2209183996833
Satellite/OBS_035 to Missile/HGV_00008,22 Jul 2025 00:17:30.000000000,286.1640833601369,-41.228015182479226,2305.256858882915
Satellite/OBS_035 to Missile/HGV_00008,22 Jul 2025 00:18:30.000000000,278.54547438043056,-42.048151131745755,2243.681387068547
Satellite/OBS_035 to Missile/HGV_00008,22 Jul 2025 00:19:30.000000000,269.44137331526963,-41.85155327645908,2260.4872914625394
Satellite/OBS_035 to Missile/HGV_00008,22 Jul 2025 00:20:30.000000000,259.5623489239388,-40.99198357835504,2346.3164715692183
Satellite/OBS_035 to Missile/HGV_00008,22 Jul 2025 00:21:30.000000000,249.18006395644315,-39.64181901317092,2486.2023215790723
Satellite/OBS_035 to Missile/HGV_00008,22 Jul 2025 00:22:30.000000000,239.4693136045101,-38.36346074912304,2652.2866322919735
Satellite/OBS_035 to Missile/HGV_00008,22 Jul 2025 00:22:51.990941000,236.34737847781557,-37.95836834326816,2715.4954307313346
Satellite/OBS_036 to Missile/HGV_00008,21 Jul 2025 23:59:59.982232000,314.57702429508686,-33.51729070694082,5326.687990423723
Satellite/OBS_036 to Missile/HGV_00008,22 Jul 2025 00:00:59.000000000,307.8225131494639,-32.916137025454375,4904.534420807486
Satellite/OBS_036 to Missile/HGV_00008,22 Jul 2025 00:01:59.000000000,299.6072885456157,-32.755191161406906,4552.218731882383
Satellite/OBS_036 to Missile/HGV_00008,22 Jul 2025 00:02:59.000000000,290.04120379929054,-33.002071043161145,4302.919790117949
Satellite/OBS_036 to Missile/HGV_00008,22 Jul 2025 00:03:59.000000000,279.47126779951105,-33.49209408058444,4173.3902574152835
Satellite/OBS_036 to Missile/HGV_00008,22 Jul 2025 00:04:59.000000000,269.2765888230321,-33.248525821398054,4062.2045346595824
Satellite/OBS_036 to Missile/HGV_00008,22 Jul 2025 00:05:59.000000000,259.02420540596137,-32.99028371415461,4043.9372165050004
Satellite/OBS_036 to Missile/HGV_00008,22 Jul 2025 00:06:59.000000000,249.0058844083397,-32.96951285951822,4145.705611952033
Satellite/OBS_036 to Missile/HGV_00008,22 Jul 2025 00:07:59.000000000,239.78929121671592,-33.24416872615676,4357.45176071879
Satellite/OBS_036 to Missile/HGV_00008,22 Jul 2025 00:08:59.000000000,231.69999111486294,-33.66573435623866,4634.449892989772
Satellite/OBS_036 to Missile/HGV_00008,22 Jul 2025 00:09:59.000000000,224.91293499361487,-33.66241582460819,4874.93117324733
Satellite/OBS_036 to Missile/HGV_00008,22 Jul 2025 00:10:59.000000000,218.94900567619584,-34.00620890546536,5156.908776465474
Satellite/OBS_036 to Missile/HGV_00008,22 Jul 2025 00:10:59.951947295,218.86027702968894,-34.015020710912786,5161.7249929761
Satellite/OBS_037 to Missile/HGV_00008,22 Jul 2025 00:20:01.629576601,2.3152949097323323,-34.03343530688597,4909.739533430789
Satellite/OBS_037 to Missile/HGV_00008,22 Jul 2025 00:21:01.000000000,1.7908856368699462,-33.818160519314,4597.259526048274
Satellite/OBS_037 to Missile/HGV_00008,22 Jul 2025 00:22:01.000000000,1.2572575602141358,-33.76174626889427,4225.138390684194
Satellite/OBS_037 to Missile/HGV_00008,22 Jul 2025 00:22:51.987007000,1.3355427305154286,-33.99939607813523,3894.919528493795
Satellite/OBS_038 to Missile/HGV_00008,22 Jul 2025 00:05:42.251861553,350.45846385359806,-34.03097695901075,5277.355719247847
Satellite/OBS_038 to Missile/HGV_00008,22 Jul 2025 00:06:42.000000000,348.1346983968231,-33.155790679341315,4646.804260485086
Satellite/OBS_038 to Missile/HGV_00008,22 Jul 2025 00:07:42.000000000,344.9634378598173,-33.15891486261185,4018.945499632687
Satellite/OBS_038 to Missile/HGV_00008,22 Jul 2025 00:08:42.000000000,340.57792501694996,-34.39726999969318,3410.5150615794573
Satellite/OBS_038 to Missile/HGV_00008,22 Jul 2025 00:09:42.000000000,336.6482478671482,-36.43909294513128,2825.941210462
Satellite/OBS_038 to Missile/HGV_00008,22 Jul 2025 00:10:42.000000000,331.2319839934673,-40.729284811501074,2285.532523229823
Satellite/OBS_038 to Missile/HGV_00008,22 Jul 2025 00:11:42.000000000,320.85644784101027,-48.931558024212165,1830.4006125696487
Satellite/OBS_038 to Missile/HGV_00008,22 Jul 2025 00:12:42.000000000,299.9793382903805,-60.39172849228579,1517.5883047397508
Satellite/OBS_038 to Missile/HGV_00008,22 Jul 2025 00:13:42.000000000,257.3116869881204,-68.38414873745687,1382.0973630736507
Satellite/OBS_038 to Missile/HGV_00008,22 Jul 2025 00:14:42.000000000,210.1141208724425,-62.79599080069791,1471.1673518221191
Satellite/OBS_038 to Missile/HGV_00008,22 Jul 2025 00:15:42.000000000,189.9338445516998,-53.439081854351755,1689.4841679654162
Satellite/OBS_038 to Missile/HGV_00008,22 Jul 2025 00:16:42.000000000,181.21724887588317,-46.7514286428618,1939.0332786533495
Satellite/OBS_038 to Missile/HGV_00008,22 Jul 2025 00:17:42.000000000,176.58776733624416,-42.435526836766506,2213.293775010062
Satellite/OBS_038 to Missile/HGV_00008,22 Jul 2025 00:18:42.000000000,175.08775370147788,-39.56849283655501,2465.147704442015
Satellite/OBS_038 to Missile/HGV_00008,22 Jul 2025 00:19:42.000000000,175.4478489708055,-37.553415958947525,2721.1120628511885
Satellite/OBS_038 to Missile/HGV_00008,22 Jul 2025 00:20:42.000000000,176.78544504430982,-36.062799601898995,3007.2973282852054
Satellite/OBS_038 to Missile/HGV_00008,22 Jul 2025 00:21:42.000000000,178.19178678609177,-34.855123822792315,3354.1944232350306
Satellite/OBS_038 to Missile/HGV_00008,22 Jul 2025 00:22:42.000000000,178.65161965161982,-34.15943902227609,3740.3306332370607
Satellite/OBS_038 to Missile/HGV_00008,22 Jul 2025 00:22:51.987310000,178.63097066556858,-34.095030024441265,3803.9542023704703
Satellite/OBS_039 to Missile/HGV_00008,21 Jul 2025 23:59:59.992526000,12.433462942237476,-39.34423142270165,2240.8280892188536
Satellite/OBS_039 to Missile/HGV_00008,22 Jul 2025 00:00:59.000000000,7.602079099619403,-49.7153249221213,1681.7860683322808
Satellite/OBS_039 to Missile/HGV_00008,22 Jul 2025 00:01:59.000000000,348.2943891087197,-69.78983551908652,1304.692624135362
Satellite/OBS_039 to Missile/HGV_00008,22 Jul 2025 00:02:59.000000000,239.056298165205,-72.97934803128032,1306.298250680515
Satellite/OBS_039 to Missile/HGV_00008,22 Jul 2025 00:03:59.000000000,213.98843168217002,-53.55245666480074,1681.980715729671
Satellite/OBS_039 to Missile/HGV_00008,22 Jul 2025 00:04:59.000000000,204.37867492724538,-42.06223530684851,2184.223865386418
Satellite/OBS_039 to Missile/HGV_00008,22 Jul 2025 00:05:59.000000000,199.48238976990515,-36.202121390917426,2772.5045552829697
Satellite/OBS_039 to Missile/HGV_00008,22 Jul 2025 00:06:59.000000000,196.83701629459395,-33.746026500501536,3408.003408716466
Satellite/OBS_039 to Missile/HGV_00008,22 Jul 2025 00:07:59.000000000,195.24506229800323,-33.24432919293562,4060.470634238205
Satellite/OBS_039 to Missile/HGV_00008,22 Jul 2025 00:08:59.000000000,193.86236125964868,-33.7215520203613,4705.2673876194085
Satellite/OBS_039 to Missile/HGV_00008,22 Jul 2025 00:09:39.397577131,192.33978989592785,-34.018068023996776,5102.625111798859
Satellite/OBS_046 to Missile/HGV_00008,22 Jul 2025 00:13:03.484215803,357.27225716466785,-34.04235485106698,5063.568205507023
Satellite/OBS_046 to Missile/HGV_00008,22 Jul 2025 00:14:03.000000000,357.6702254344884,-33.449363390638105,4516.600783174819
Satellite/OBS_046 to Missile/HGV_00008,22 Jul 2025 00:15:03.000000000,358.44569956821437,-33.61466882831967,3975.140655504979
Satellite/OBS_046 to Missile/HGV_00008,22 Jul 2025 00:16:03.000000000,0.45074717834586414,-34.17709329127016,3501.4160735734326
Satellite/OBS_046 to Missile/HGV_00008,22 Jul 2025 00:17:03.000000000,3.4131644048755874,-35.45061887724603,3085.489394469757
Satellite/OBS_046 to Missile/HGV_00008,22 Jul 2025 00:18:03.000000000,7.253182973823715,-37.45202330278165,2732.343801815343
Satellite/OBS_046 to Missile/HGV_00008,22 Jul 2025 00:19:03.000000000,11.112964596636278,-39.69018351990384,2452.00220065759
Satellite/OBS_046 to Missile/HGV_00008,22 Jul 2025 00:20:03.000000000,14.620076018534563,-42.66910123802468,2205.997077294867
Satellite/OBS_046 to Missile/HGV_00008,22 Jul 2025 00:21:03.000000000,17.362536805830896,-46.917436111903484,1962.2665779487195
Satellite/OBS_046 to Missile/HGV_00008,22 Jul 2025 00:22:03.000000000,20.904105895307957,-53.77794047932208,1704.2330917584638
Satellite/OBS_046 to Missile/HGV_00008,22 Jul 2025 00:22:51.994925000,28.519835291972505,-61.8139357549241,1521.1396410454406
Satellite/OBS_047 to Missile/HGV_00008,22 Jul 2025 00:00:41.169669137,31.45064030610082,-33.96387730047548,5541.039351597547
Satellite/OBS_047 to Missile/HGV_00008,22 Jul 2025 00:01:41.000000000,29.547788228384526,-33.186858696286286,5007.515687619874
Satellite/OBS_047 to Missile/HGV_00008,22 Jul 2025 00:02:41.000000000,27.383828678903107,-32.93998658960328,4465.69887371717
Satellite/OBS_047 to Missile/HGV_00008,22 Jul 2025 00:03:41.000000000,24.779559044774818,-33.45165515234671,3924.1966752946146
Satellite/OBS_047 to Missile/HGV_00008,22 Jul 2025 00:04:41.000000000,23.064411561413618,-34.364853532212514,3348.3994737850708
Satellite/OBS_047 to Missile/HGV_00008,22 Jul 2025 00:05:41.000000000,22.617939768904485,-36.37534609433143,2756.757751304269
Satellite/OBS_047 to Missile/HGV_00008,22 Jul 2025 00:06:41.000000000,22.100014922688555,-41.318367249576845,2194.361748936164
Satellite/OBS_047 to Missile/HGV_00008,22 Jul 2025 00:07:41.000000000,21.168074019915384,-51.60177225008623,1703.5083623439314
Satellite/OBS_047 to Missile/HGV_00008,22 Jul 2025 00:08:41.000000000,18.78888455025471,-70.47267416850994,1369.971266541045
Satellite/OBS_047 to Missile/HGV_00008,22 Jul 2025 00:09:41.000000000,174.62743372930214,-82.95538421570315,1274.0654319780208
Satellite/OBS_047 to Missile/HGV_00008,22 Jul 2025 00:10:41.000000000,186.06337860420604,-59.889629174372736,1500.0211881205364
Satellite/OBS_047 to Missile/HGV_00008,22 Jul 2025 00:11:41.000000000,187.2481229817824,-46.373363641155116,1944.9362657859872
Satellite/OBS_047 to Missile/HGV_00008,22 Jul 2025 00:12:41.000000000,186.36808699442312,-39.3801118123352,2469.418460870789
Satellite/OBS_047 to Missile/HGV_00008,22 Jul 2025 00:13:41.000000000,184.05099980837844,-35.642377004477844,2991.9121465306102
Satellite/OBS_047 to Missile/HGV_00008,22 Jul 2025 00:14:41.000000000,182.29064488576722,-34.09752620894338,3528.0000702320876
Satellite/OBS_047 to Missile/HGV_00008,22 Jul 2025 00:15:41.000000000,180.38354132914463,-33.57819371629382,4029.740082698536
Satellite/OBS_047 to Missile/HGV_00008,22 Jul 2025 00:16:41.000000000,178.41749765861135,-33.52165239614513,4467.970288191078
Satellite/OBS_047 to Missile/HGV_00008,22 Jul 2025 00:17:41.000000000,176.7349084338772,-33.94009672541312,4873.209372253501
Satellite/OBS_047 to Missile/HGV_00008,22 Jul 2025 00:17:53.275720088,176.43239575810864,-34.035534222581575,4947.862306777093
Satellite/OBS_048 to Missile/HGV_00008,21 Jul 2025 23:59:59.987665000,122.94117647501218,-32.449342080698294,3698.0266699026706
Satellite/OBS_048 to Missile/HGV_00008,22 Jul 2025 00:00:59.000000000,132.95819176687453,-32.51387253005068,3727.489804840105
Satellite/OBS_048 to Missile/HGV_00008,22 Jul 2025 00:01:59.000000000,142.7484188553507,-32.67513651895175,3856.3252141296343
Satellite/OBS_048 to Missile/HGV_00008,22 Jul 2025 00:02:59.000000000,151.7027083202204,-32.9992413195819,4072.3827802840424
Satellite/OBS_048 to Missile/HGV_00008,22 Jul 2025 00:03:59.000000000,159.5975810742421,-33.504808357429326,4365.193414873756
Satellite/OBS_048 to Missile/HGV_00008,22 Jul 2025 00:04:59.000000000,165.37297989075626,-33.57354280832105,4819.8217840659145
Satellite/OBS_048 to Missile/HGV_00008,22 Jul 2025 00:05:53.076191706,169.36619627313564,-34.001428215646676,5275.084132095536
