exports_48/stk_exports/OUTPUT_CHAIN/HGV_00005/chain_aer.csv

# Satellite Name: Multiple
# Target Name: HGV_00005
# Start Time (UTCG): 21 Jul 2025 23:59:30.000
# Stop Time  (UTCG): 22 Jul 2025 00:26:16.000
# Orbit Altitude (km): 1300.000
# Inclination (deg): 60.000
# Orbit Geometry: delta
# Step Size (s): 60
# Number of Records: 1676
# ---------------------------------------------
Strand Name,Time (UTCG),Azimuth (deg),Elevation (deg),Range (km)
Satellite/OBS_001 to Missile/HGV_00005,22 Jul 2025 00:08:50.421389585,1.0771134256852584,-34.00246661691245,5080.859032690024
Satellite/OBS_001 to Missile/HGV_00005,22 Jul 2025 00:09:50.000000000,357.74128500822553,-33.41431046156413,4639.872516530146
Satellite/OBS_001 to Missile/HGV_00005,22 Jul 2025 00:10:50.000000000,353.7675524380562,-33.39265148442826,4201.588042340871
Satellite/OBS_001 to Missile/HGV_00005,22 Jul 2025 00:11:50.000000000,349.44073696247335,-33.780406187009135,3745.3437552947958
Satellite/OBS_001 to Missile/HGV_00005,22 Jul 2025 00:12:50.000000000,345.1100864805534,-34.64519137071327,3261.3726659561917
Satellite/OBS_001 to Missile/HGV_00005,22 Jul 2025 00:13:50.000000000,339.4613329995405,-36.84064481214492,2800.4794748782906
Satellite/OBS_001 to Missile/HGV_00005,22 Jul 2025 00:14:50.000000000,332.75959543559105,-40.5056809036761,2360.970288102958
Satellite/OBS_001 to Missile/HGV_00005,22 Jul 2025 00:15:50.000000000,324.3573962526457,-46.189942239195055,1968.525652048586
Satellite/OBS_001 to Missile/HGV_00005,22 Jul 2025 00:16:50.000000000,310.81214806677997,-54.37223994709233,1667.9017239673403
Satellite/OBS_001 to Missile/HGV_00005,22 Jul 2025 00:17:50.000000000,289.07104430059775,-62.641435492501735,1483.7537502239502
Satellite/OBS_001 to Missile/HGV_00005,22 Jul 2025 00:18:50.000000000,256.2274165810953,-66.37055835369783,1429.895948948321
Satellite/OBS_001 to Missile/HGV_00005,22 Jul 2025 00:19:50.000000000,227.84077995187255,-62.992282462680606,1487.9470134078374
Satellite/OBS_001 to Missile/HGV_00005,22 Jul 2025 00:20:50.000000000,213.4408924046621,-56.111295765689206,1637.1828710457487
Satellite/OBS_001 to Missile/HGV_00005,22 Jul 2025 00:21:50.000000000,205.73682557850117,-49.13266368104191,1876.007163039793
Satellite/OBS_001 to Missile/HGV_00005,22 Jul 2025 00:21:56.993632000,204.99208663154064,-48.40085757645026,1908.7841577638549
Satellite/OBS_002 to Missile/HGV_00005,21 Jul 2025 23:59:59.989437000,85.5910759757197,-33.82917038118552,3166.674144807986
Satellite/OBS_002 to Missile/HGV_00005,22 Jul 2025 00:00:59.000000000,88.36732071897961,-35.09742450893947,2876.877495394609
Satellite/OBS_002 to Missile/HGV_00005,22 Jul 2025 00:01:59.000000000,92.21243949592814,-37.189119631751005,2597.519079770859
Satellite/OBS_002 to Missile/HGV_00005,22 Jul 2025 00:02:59.000000000,97.49927852922234,-40.24545625943807,2343.2022152081977
Satellite/OBS_002 to Missile/HGV_00005,22 Jul 2025 00:03:59.000000000,107.0407825237194,-43.40571280357506,2121.3341769543154
Satellite/OBS_002 to Missile/HGV_00005,22 Jul 2025 00:04:59.000000000,123.03753767864208,-44.815697624098156,1991.5774480384518
Satellite/OBS_002 to Missile/HGV_00005,22 Jul 2025 00:05:59.000000000,140.82070242661882,-44.72100463835766,1984.832808000514
Satellite/OBS_002 to Missile/HGV_00005,22 Jul 2025 00:06:59.000000000,157.18907539085606,-43.20475919338775,2099.686940303943
Satellite/OBS_002 to Missile/HGV_00005,22 Jul 2025 00:07:59.000000000,170.28532169641053,-40.89779142028602,2324.1311858405543
Satellite/OBS_002 to Missile/HGV_00005,22 Jul 2025 00:08:59.000000000,178.78607510589177,-37.253972095955135,2694.4399230436993
Satellite/OBS_002 to Missile/HGV_00005,22 Jul 2025 00:09:59.000000000,184.17824846356092,-34.90311062719033,3133.8212181618023
Satellite/OBS_002 to Missile/HGV_00005,22 Jul 2025 00:10:59.000000000,187.95536731240432,-33.91926480567493,3604.312102004841
Satellite/OBS_002 to Missile/HGV_00005,22 Jul 2025 00:11:59.000000000,189.90451609570192,-33.47899549303572,4115.979791721111
Satellite/OBS_002 to Missile/HGV_00005,22 Jul 2025 00:12:59.000000000,190.49051065829596,-33.544090462366036,4648.222163806035
Satellite/OBS_002 to Missile/HGV_00005,22 Jul 2025 00:13:43.961386616,190.72464369299436,-34.048817819803496,5045.212827609008
Satellite/OBS_010 to Missile/HGV_00005,21 Jul 2025 23:59:59.986137000,356.09299822432115,-32.527672184890044,4156.297591846483
Satellite/OBS_010 to Missile/HGV_00005,22 Jul 2025 00:00:59.000000000,353.49740507890755,-32.61296949695781,4122.3439297502855
Satellite/OBS_010 to Missile/HGV_00005,22 Jul 2025 00:01:59.000000000,350.85547566255644,-32.87292009819118,4097.0932010052165
Satellite/OBS_010 to Missile/HGV_00005,22 Jul 2025 00:02:59.000000000,348.2208519957264,-33.30444231143797,4082.746447066634
Satellite/OBS_010 to Missile/HGV_00005,22 Jul 2025 00:03:59.000000000,344.84001827666896,-33.46001252679493,4041.5260085799696
Satellite/OBS_010 to Missile/HGV_00005,22 Jul 2025 00:04:59.000000000,340.3167588808876,-33.177581307228934,3946.416216603539
Satellite/OBS_010 to Missile/HGV_00005,22 Jul 2025 00:05:59.000000000,335.61740295111014,-33.13457719661659,3870.438520289904
Satellite/OBS_010 to Missile/HGV_00005,22 Jul 2025 00:06:59.000000000,330.8221617314706,-33.35998431160357,3820.343250206056
Satellite/OBS_010 to Missile/HGV_00005,22 Jul 2025 00:07:59.000000000,325.8080205135369,-33.743892815431415,3789.996790175359
Satellite/OBS_010 to Missile/HGV_00005,22 Jul 2025 00:08:59.000000000,319.44951879761555,-33.62712874865434,3711.092064371965
Satellite/OBS_010 to Missile/HGV_00005,22 Jul 2025 00:09:59.000000000,312.60226463532456,-33.62087656365548,3652.3546032613663
Satellite/OBS_010 to Missile/HGV_00005,22 Jul 2025 00:10:59.000000000,305.5928914760908,-33.862847586871844,3638.7538948369524
Satellite/OBS_010 to Missile/HGV_00005,22 Jul 2025 00:11:59.000000000,297.9004866684993,-33.920093750503696,3626.4348906654036
Satellite/OBS_010 to Missile/HGV_00005,22 Jul 2025 00:12:59.000000000,289.5996546657886,-33.824410005000324,3617.8221994263017
Satellite/OBS_010 to Missile/HGV_00005,22 Jul 2025 00:13:59.000000000,281.3012771143817,-33.91759497501109,3662.410996005782
Satellite/OBS_010 to Missile/HGV_00005,22 Jul 2025 00:14:59.000000000,272.85375991794115,-33.836054949714615,3710.141525768253
Satellite/OBS_010 to Missile/HGV_00005,22 Jul 2025 00:15:59.000000000,264.57527328865183,-33.74732842962015,3774.0279589059105
Satellite/OBS_010 to Missile/HGV_00005,22 Jul 2025 00:16:59.000000000,256.7380309615458,-33.757627141028735,3864.876344184266
Satellite/OBS_010 to Missile/HGV_00005,22 Jul 2025 00:17:59.000000000,249.70190096755763,-33.68032062393349,3948.322635292669
Satellite/OBS_010 to Missile/HGV_00005,22 Jul 2025 00:18:59.000000000,243.61826979124726,-33.68047228878546,4042.886256090409
Satellite/OBS_010 to Missile/HGV_00005,22 Jul 2025 00:19:59.000000000,238.72745416108214,-33.71335928972997,4155.436012530176
Satellite/OBS_010 to Missile/HGV_00005,22 Jul 2025 00:20:59.000000000,235.0298877063205,-33.75506026938616,4313.033910554475
Satellite/OBS_010 to Missile/HGV_00005,22 Jul 2025 00:21:56.984906000,231.91319155563454,-33.895543158751956,4524.689491268834
Satellite/OBS_011 to Missile/HGV_00005,21 Jul 2025 23:59:59.988172000,184.60268799157623,-32.95134533953106,3545.9621804950348
Satellite/OBS_011 to Missile/HGV_00005,22 Jul 2025 00:00:59.000000000,187.46686618786885,-32.960617186046214,3606.469894069334
Satellite/OBS_011 to Missile/HGV_00005,22 Jul 2025 00:01:59.000000000,190.24761186133625,-33.164270077897285,3672.139841014908
Satellite/OBS_011 to Missile/HGV_00005,22 Jul 2025 00:02:59.000000000,192.9144627751741,-33.55416875046445,3739.8812108176476
Satellite/OBS_011 to Missile/HGV_00005,22 Jul 2025 00:03:59.000000000,195.91432298799523,-33.57909921573555,3859.8643901423898
Satellite/OBS_011 to Missile/HGV_00005,22 Jul 2025 00:04:59.000000000,199.0377782525854,-33.124506026880034,4072.543897096967
Satellite/OBS_011 to Missile/HGV_00005,22 Jul 2025 00:05:59.000000000,201.82343310373113,-33.03363480384194,4293.230954454627
Satellite/OBS_011 to Missile/HGV_00005,22 Jul 2025 00:06:59.000000000,204.35136936640905,-33.28395228491932,4513.086630989792
Satellite/OBS_011 to Missile/HGV_00005,22 Jul 2025 00:07:59.000000000,206.6901906068531,-33.74551183544467,4741.9214676334905
Satellite/OBS_011 to Missile/HGV_00005,22 Jul 2025 00:08:59.000000000,208.52806167759522,-33.96267871232147,5071.606351429914
Satellite/OBS_011 to Missile/HGV_00005,22 Jul 2025 00:09:12.721426057,208.89056785169709,-34.04354614203985,5151.845202707077
Satellite/OBS_013 to Missile/HGV_00005,21 Jul 2025 23:59:59.983436000,289.43104545245023,-33.15405405379948,4965.974562706915
Satellite/OBS_013 to Missile/HGV_00005,22 Jul 2025 00:00:59.000000000,289.9144174301005,-33.319975409603316,5032.84916940028
Satellite/OBS_013 to Missile/HGV_00005,22 Jul 2025 00:01:59.000000000,290.5386899379294,-33.610157671195275,5087.1021756058235
Satellite/OBS_013 to Missile/HGV_00005,22 Jul 2025 00:02:46.282803787,291.1286510871401,-33.92165771087581,5120.153461641299
Satellite/OBS_031 to Missile/HGV_00005,21 Jul 2025 23:59:59.985184000,234.3505942686342,-32.62460651843507,4441.649574401486
Satellite/OBS_031 to Missile/HGV_00005,22 Jul 2025 00:00:59.000000000,229.53057385173994,-33.26065466209978,4991.092718889073
Satellite/OBS_031 to Missile/HGV_00005,22 Jul 2025 00:01:33.488391171,227.3048806232841,-33.88800091702916,5322.965158427878
Satellite/OBS_035 to Missile/HGV_00005,22 Jul 2025 00:10:37.808362275,315.1591594779078,-34.05033349523038,5119.735729242034
Satellite/OBS_035 to Missile/HGV_00005,22 Jul 2025 00:11:37.000000000,312.9555100553532,-33.67843622792057,4644.10263257427
Satellite/OBS_035 to Missile/HGV_00005,22 Jul 2025 00:12:37.000000000,311.14707590009726,-33.37689946061541,4226.947984875817
Satellite/OBS_035 to Missile/HGV_00005,22 Jul 2025 00:13:37.000000000,308.9693895064235,-33.626847184466655,3833.065863205857
Satellite/OBS_035 to Missile/HGV_00005,22 Jul 2025 00:14:37.000000000,306.5468636286196,-34.27233479103462,3486.801369637155
Satellite/OBS_035 to Missile/HGV_00005,22 Jul 2025 00:15:37.000000000,303.88191579885273,-34.90401272935106,3221.56527844057
Satellite/OBS_035 to Missile/HGV_00005,22 Jul 2025 00:16:37.000000000,300.55931061713574,-35.90046353380257,3002.551603988975
Satellite/OBS_035 to Missile/HGV_00005,22 Jul 2025 00:17:37.000000000,296.0928554824245,-36.6658777489974,2857.5503332018397
Satellite/OBS_035 to Missile/HGV_00005,22 Jul 2025 00:18:37.000000000,290.0605321114376,-37.18735582567758,2775.181371966029
Satellite/OBS_035 to Missile/HGV_00005,22 Jul 2025 00:19:37.000000000,282.4447657338903,-37.52041549326713,2743.363192157439
Satellite/OBS_035 to Missile/HGV_00005,22 Jul 2025 00:20:37.000000000,273.20684189564145,-37.58392044388431,2745.745472402954
Satellite/OBS_035 to Missile/HGV_00005,22 Jul 2025 00:21:37.000000000,263.45262280427073,-37.563823264031186,2767.003497169438
Satellite/OBS_035 to Missile/HGV_00005,22 Jul 2025 00:21:56.990732000,260.35906084491575,-37.539360589202715,2778.156334745454
Satellite/OBS_036 to Missile/HGV_00005,22 Jul 2025 00:00:21.899090563,316.7071211890267,-33.93583164466782,5434.075258733701
Satellite/OBS_036 to Missile/HGV_00005,22 Jul 2025 00:01:21.000000000,310.03174744060505,-33.39120376111677,5039.730105250031
Satellite/OBS_036 to Missile/HGV_00005,22 Jul 2025 00:02:21.000000000,302.07484360638074,-33.2706578635349,4714.234376568939
Satellite/OBS_036 to Missile/HGV_00005,22 Jul 2025 00:03:21.000000000,293.0016759997997,-33.51171461916833,4482.498825928264
Satellite/OBS_036 to Missile/HGV_00005,22 Jul 2025 00:04:21.000000000,283.82101493658723,-33.293295055325586,4272.526991880834
Satellite/OBS_036 to Missile/HGV_00005,22 Jul 2025 00:05:21.000000000,274.20820401618766,-33.05003293596187,4133.476541111522
Satellite/OBS_036 to Missile/HGV_00005,22 Jul 2025 00:06:21.000000000,264.1564159058088,-33.06005381090472,4109.391824965401
Satellite/OBS_036 to Missile/HGV_00005,22 Jul 2025 00:07:21.000000000,254.27772700461009,-33.308657612655495,4202.253984780888
Satellite/OBS_036 to Missile/HGV_00005,22 Jul 2025 00:08:21.000000000,245.21745835731565,-33.49093707645954,4359.334641787682
Satellite/OBS_036 to Missile/HGV_00005,22 Jul 2025 00:09:21.000000000,237.31326409252893,-33.35092794885847,4517.8852566124615
Satellite/OBS_036 to Missile/HGV_00005,22 Jul 2025 00:10:21.000000000,230.17855018211677,-33.545747831721684,4739.682311015277
Satellite/OBS_036 to Missile/HGV_00005,22 Jul 2025 00:11:16.678618513,224.28412920639636,-34.00747222697234,4986.903364332506
Satellite/OBS_038 to Missile/HGV_00005,22 Jul 2025 00:06:32.429289827,351.2652316873752,-34.02115274366156,5238.581834727977
Satellite/OBS_038 to Missile/HGV_00005,22 Jul 2025 00:07:32.000000000,348.46749785406746,-33.533403699771846,4629.154134062137
Satellite/OBS_038 to Missile/HGV_00005,22 Jul 2025 00:08:32.000000000,345.82041577192507,-33.47840359293928,4019.3359653545813
Satellite/OBS_038 to Missile/HGV_00005,22 Jul 2025 00:09:32.000000000,343.60728041775644,-34.04812462245819,3423.7437449606173
Satellite/OBS_038 to Missile/HGV_00005,22 Jul 2025 00:10:32.000000000,340.402578499752,-36.308283621491135,2849.0159629093287
Satellite/OBS_038 to Missile/HGV_00005,22 Jul 2025 00:11:32.000000000,335.84757983508047,-41.01042373749713,2317.71489296072
Satellite/OBS_038 to Missile/HGV_00005,22 Jul 2025 00:12:32.000000000,331.2529813404485,-48.205634317825904,1861.8114395436871
Satellite/OBS_038 to Missile/HGV_00005,22 Jul 2025 00:13:32.000000000,321.9932724809713,-60.23010622623126,1514.1582581763496
Satellite/OBS_038 to Missile/HGV_00005,22 Jul 2025 00:14:32.000000000,292.6357160148678,-75.16346838675067,1332.0995665627638
Satellite/OBS_038 to Missile/HGV_00005,22 Jul 2025 00:15:32.000000000,213.53580389710896,-76.83037178937063,1314.5799338435565
Satellite/OBS_038 to Missile/HGV_00005,22 Jul 2025 00:16:32.000000000,182.663327255862,-65.48060586089939,1437.1502662174896
Satellite/OBS_038 to Missile/HGV_00005,22 Jul 2025 00:17:32.000000000,175.6264964194792,-56.39998988617587,1614.0759725473456
Satellite/OBS_038 to Missile/HGV_00005,22 Jul 2025 00:18:32.000000000,174.7974370722797,-49.9921819990827,1814.67903526439
Satellite/OBS_038 to Missile/HGV_00005,22 Jul 2025 00:19:32.000000000,176.2527609379743,-45.20603863748351,2048.388657402413
Satellite/OBS_038 to Missile/HGV_00005,22 Jul 2025 00:20:32.000000000,178.46183788292973,-41.15772279338208,2340.0546497069145
Satellite/OBS_038 to Missile/HGV_00005,22 Jul 2025 00:21:32.000000000,179.5303306169238,-38.045438128433226,2694.7499060255395
Satellite/OBS_038 to Missile/HGV_00005,22 Jul 2025 00:21:56.990494000,179.51714959271814,-37.10066333059218,2849.612829125389
Satellite/OBS_039 to Missile/HGV_00005,21 Jul 2025 23:59:59.991244000,17.69753512777011,-36.42371224990309,2625.2113154520316
Satellite/OBS_039 to Missile/HGV_00005,22 Jul 2025 00:00:59.000000000,14.945025651338966,-42.81072811929579,2039.5547154511405
Satellite/OBS_039 to Missile/HGV_00005,22 Jul 2025 00:01:59.000000000,8.155834529762961,-56.20268228491408,1548.5327902257945
Satellite/OBS_039 to Missile/HGV_00005,22 Jul 2025 00:02:59.000000000,330.4759574102352,-77.09198280153801,1299.021657923824
Satellite/OBS_039 to Missile/HGV_00005,22 Jul 2025 00:03:59.000000000,223.9592648524171,-68.40074472555735,1387.430170682714
Satellite/OBS_039 to Missile/HGV_00005,22 Jul 2025 00:04:59.000000000,205.40786892686538,-50.39450332057483,1743.6808690552584
Satellite/OBS_039 to Missile/HGV_00005,22 Jul 2025 00:05:59.000000000,200.06617191792813,-40.460569497630544,2277.3463151541864
Satellite/OBS_039 to Missile/HGV_00005,22 Jul 2025 00:06:59.000000000,197.68817458626282,-35.90865258300775,2886.6143876658043
Satellite/OBS_039 to Missile/HGV_00005,22 Jul 2025 00:07:59.000000000,196.17288633179996,-34.162507893676114,3521.161644806479
Satellite/OBS_039 to Missile/HGV_00005,22 Jul 2025 00:08:59.000000000,193.67396096826843,-33.32817414864476,4120.771262843402
Satellite/OBS_039 to Missile/HGV_00005,22 Jul 2025 00:09:59.000000000,191.56509485016625,-33.481278980561186,4711.642750418482
Satellite/OBS_039 to Missile/HGV_00005,22 Jul 2025 00:10:37.430309518,190.47352840309014,-34.004311086237436,5088.279484523384
Satellite/OBS_040 to Missile/HGV_00005,21 Jul 2025 23:59:59.982630000,171.49344465527994,-33.52114000671238,5207.120487461769
Satellite/OBS_040 to Missile/HGV_00005,22 Jul 2025 00:00:10.431862927,172.22716126733567,-33.69264782863352,5305.56708173468
Satellite/OBS_040 to Missile/HGV_00005,22 Jul 2025 00:00:20.881095854,172.9358392320957,-33.878886823147525,5404.307772194165
Satellite/OBS_046 to Missile/HGV_00005,22 Jul 2025 00:14:00.220553967,3.770351141975422,-34.03108789425285,4998.356830972543
Satellite/OBS_046 to Missile/HGV_00005,22 Jul 2025 00:15:00.000000000,5.427030875949213,-33.56954866511694,4506.386933815647
Satellite/OBS_046 to Missile/HGV_00005,22 Jul 2025 00:16:00.000000000,7.903522575741319,-33.526564118218495,4066.8754515618475
Satellite/OBS_046 to Missile/HGV_00005,22 Jul 2025 00:17:00.000000000,11.034788046282554,-33.98024903624238,3680.6642011226863
Satellite/OBS_046 to Missile/HGV_00005,22 Jul 2025 00:18:00.000000000,14.294808388125793,-34.60380510966268,3371.1938116674687
Satellite/OBS_046 to Missile/HGV_00005,22 Jul 2025 00:19:00.000000000,17.255469678921767,-35.57412905659167,3100.5250426268067
Satellite/OBS_046 to Missile/HGV_00005,22 Jul 2025 00:20:00.000000000,19.53235973639078,-36.98936011423934,2833.554970035588
Satellite/OBS_046 to Missile/HGV_00005,22 Jul 2025 00:21:00.000000000,21.60656359963338,-39.28091466432304,2530.750945668222
Satellite/OBS_046 to Missile/HGV_00005,22 Jul 2025 00:21:56.992571000,25.24617183224691,-42.798640787147654,2227.0761702135464
Satellite/OBS_047 to Missile/HGV_00005,22 Jul 2025 00:01:43.609055073,33.27677732875023,-33.95793621261232,5341.308974496698
Satellite/OBS_047 to Missile/HGV_00005,22 Jul 2025 00:02:43.000000000,31.250565824931815,-33.54353182557829,4844.464366447016
Satellite/OBS_047 to Missile/HGV_00005,22 Jul 2025 00:03:43.000000000,29.254656146897183,-33.50368921264199,4323.96794547204
Satellite/OBS_047 to Missile/HGV_00005,22 Jul 2025 00:04:43.000000000,28.861906993384434,-33.41181997066626,3754.187021631874
Satellite/OBS_047 to Missile/HGV_00005,22 Jul 2025 00:05:43.000000000,28.814197399271777,-34.4274950719495,3184.3404327066087
Satellite/OBS_047 to Missile/HGV_00005,22 Jul 2025 00:06:43.000000000,28.96384646725739,-37.37598212482293,2630.1054964513833
Satellite/OBS_047 to Missile/HGV_00005,22 Jul 2025 00:07:43.000000000,29.582475892042773,-43.56146562674276,2113.846072957741
Satellite/OBS_047 to Missile/HGV_00005,22 Jul 2025 00:08:43.000000000,36.174315026740565,-53.98745735319496,1658.086145497889
Satellite/OBS_047 to Missile/HGV_00005,22 Jul 2025 00:09:43.000000000,64.13162828085997,-68.70512173809037,1368.5633530056436
Satellite/OBS_047 to Missile/HGV_00005,22 Jul 2025 00:10:43.000000000,137.87492119078706,-69.4221717590163,1370.865560290826
Satellite/OBS_047 to Missile/HGV_00005,22 Jul 2025 00:11:43.000000000,165.63893161413202,-54.540019301458706,1655.7918479037467
Satellite/OBS_047 to Missile/HGV_00005,22 Jul 2025 00:12:43.000000000,170.79375552288997,-43.85337528654583,2085.388879033733
Satellite/OBS_047 to Missile/HGV_00005,22 Jul 2025 00:13:43.000000000,172.60149895518475,-38.2818598226536,2587.4968504960516
Satellite/OBS_047 to Missile/HGV_00005,22 Jul 2025 00:14:43.000000000,172.56804036812912,-35.454176219265776,3093.791812538152
Satellite/OBS_047 to Missile/HGV_00005,22 Jul 2025 00:15:43.000000000,171.5337815641974,-34.049523268935474,3557.8989618914725
Satellite/OBS_047 to Missile/HGV_00005,22 Jul 2025 00:16:43.000000000,170.46947827100672,-33.64465795857152,3994.9981078188553
Satellite/OBS_047 to Missile/HGV_00005,22 Jul 2025 00:17:43.000000000,169.53543833059288,-33.59499801001034,4362.983767112237
Satellite/OBS_047 to Missile/HGV_00005,22 Jul 2025 00:18:43.000000000,169.10967435667746,-33.786575801060806,4679.439707414424
Satellite/OBS_047 to Missile/HGV_00005,22 Jul 2025 00:19:23.213067588,169.17568056706332,-34.01827906482327,4875.075529612078
Satellite/OBS_048 to Missile/HGV_00005,21 Jul 2025 23:59:59.986750000,116.83281853557348,-32.554039950684924,3972.276680700515
Satellite/OBS_048 to Missile/HGV_00005,22 Jul 2025 00:00:59.000000000,125.56218451552195,-32.67318948732817,3907.2313794298047
Satellite/OBS_048 to Missile/HGV_00005,22 Jul 2025 00:01:59.000000000,134.64932860693114,-32.932734410170646,3927.0622480983484
Satellite/OBS_048 to Missile/HGV_00005,22 Jul 2025 00:02:59.000000000,143.52451157477373,-33.322580301272374,4031.2370340731263
Satellite/OBS_048 to Missile/HGV_00005,22 Jul 2025 00:03:59.000000000,151.65523228430408,-33.422828835814116,4269.516805367924
Satellite/OBS_048 to Missile/HGV_00005,22 Jul 2025 00:04:59.000000000,158.15583994393566,-33.31231441525206,4655.403585655603
Satellite/OBS_048 to Missile/HGV_00005,22 Jul 2025 00:05:59.000000000,163.52554168564845,-33.731862905694086,5083.317532606096
Satellite/OBS_048 to Missile/HGV_00005,22 Jul 2025 00:06:19.380165489,165.1443370824895,-33.98729544212547,5234.5266128424955
